{
"type": "FeatureCollection",
"crs": { "type": "name", "properties": { "name": "urn:ogc:def:crs:OGC:1.3:CRS84" } },
                                                                                                                                  
"features": [
{ "type": "Feature", "properties": { "Name": "CVS", "Address": "3401 Walnut Street", "City": "Philadelphia", "State": "PA", "Zip_Code": 19104, "Latitude": 39.953030, "Longitude": -75.192470 }, "geometry": { "type": "Point", "coordinates": [ -75.19247, 39.95303 ] } },
{ "type": "Feature", "properties": { "Name": "CVS", "Address": "3401 Civic Center Boulevard", "City": "Philadelphia", "State": "PA", "Zip_Code": 19104, "Latitude": 39.948690, "Longitude": -75.192900 }, "geometry": { "type": "Point", "coordinates": [ -75.1929, 39.94869 ] } },
{ "type": "Feature", "properties": { "Name": "CVS", "Address": "4133 G Street", "City": "Philadelphia", "State": "PA", "Zip_Code": 19124, "Latitude": 40.011550, "Longitude": -75.111660 }, "geometry": { "type": "Point", "coordinates": [ -75.11166, 40.01155 ] } },
{ "type": "Feature", "properties": { "Name": "CVS", "Address": "1051 South Street", "City": "Philadelphia", "State": "PA", "Zip_Code": 19147, "Latitude": 39.943130, "Longitude": -75.160020 }, "geometry": { "type": "Point", "coordinates": [ -75.16002, 39.94313 ] } },
{ "type": "Feature", "properties": { "Name": "CVS", "Address": "1 Mifflin St", "City": "Philadelphia", "State": "PA", "Zip_Code": 19148, "Latitude": 39.924280, "Longitude": -75.146170 }, "geometry": { "type": "Point", "coordinates": [ -75.14617, 39.92428 ] } },
{ "type": "Feature", "properties": { "Name": "CVS", "Address": "1001 Washington Avenue", "City": "Philadelphia", "State": "PA", "Zip_Code": 19147, "Latitude": 39.937450, "Longitude": -75.160920 }, "geometry": { "type": "Point", "coordinates": [ -75.16092, 39.93745 ] } },
{ "type": "Feature", "properties": { "Name": "CVS", "Address": "1046 Market Street", "City": "Philadelphia", "State": "PA", "Zip_Code": 19107, "Latitude": 39.951420, "Longitude": -75.158190 }, "geometry": { "type": "Point", "coordinates": [ -75.15819, 39.95142 ] } },
{ "type": "Feature", "properties": { "Name": "CVS", "Address": "10901 Bustleton Avenue", "City": "Philadelphia", "State": "PA", "Zip_Code": 19116, "Latitude": 40.111570, "Longitude": -75.023380 }, "geometry": { "type": "Point", "coordinates": [ -75.02338, 40.11157 ] } },
{ "type": "Feature", "properties": { "Name": "CVS", "Address": "11000 Roosevelt Blvd Ste 3", "City": "Philadelphia", "State": "PA", "Zip_Code": 19116, "Latitude": 40.102160, "Longitude": -75.011070 }, "geometry": { "type": "Point", "coordinates": [ -75.01107, 40.10216 ] } },
{ "type": "Feature", "properties": { "Name": "CVS", "Address": "1301 Rhawn Street", "City": "Philadelphia", "State": "PA", "Zip_Code": 19111, "Latitude": 40.068960, "Longitude": -75.066690 }, "geometry": { "type": "Point", "coordinates": [ -75.06669, 40.06896 ] } },
{ "type": "Feature", "properties": { "Name": "CVS", "Address": "1405 South 10th Street", "City": "Philadelphia", "State": "PA", "Zip_Code": 19147, "Latitude": 39.931510, "Longitude": -75.160570 }, "geometry": { "type": "Point", "coordinates": [ -75.16057, 39.93151 ] } },
{ "type": "Feature", "properties": { "Name": "CVS", "Address": "1424 Chestnut Street", "City": "Philadelphia", "State": "PA", "Zip_Code": 19102, "Latitude": 39.950880, "Longitude": -75.165430 }, "geometry": { "type": "Point", "coordinates": [ -75.16543, 39.95088 ] } },
{ "type": "Feature", "properties": { "Name": "CVS", "Address": "1500 Spruce Street", "City": "Philadelphia", "State": "PA", "Zip_Code": 19102, "Latitude": 39.947050, "Longitude": -75.166710 }, "geometry": { "type": "Point", "coordinates": [ -75.16671, 39.94705 ] } },
{ "type": "Feature", "properties": { "Name": "CVS", "Address": "15500 Bustleton Avenue", "City": "Philadelphia", "State": "PA", "Zip_Code": 19116, "Latitude": 40.134450, "Longitude": -75.010130 }, "geometry": { "type": "Point", "coordinates": [ -75.01013, 40.13445 ] } },
{ "type": "Feature", "properties": { "Name": "CVS", "Address": "1600 Wadsworth Avenue", "City": "Philadelphia", "State": "PA", "Zip_Code": 19150, "Latitude": 40.080470, "Longitude": -75.171460 }, "geometry": { "type": "Point", "coordinates": [ -75.17146, 40.08047 ] } },
{ "type": "Feature", "properties": { "Name": "CVS", "Address": "1826 Chestnut Street", "City": "Philadelphia", "State": "PA", "Zip_Code": 19103, "Latitude": 39.951640, "Longitude": -75.171760 }, "geometry": { "type": "Point", "coordinates": [ -75.17176, 39.95164 ] } },
{ "type": "Feature", "properties": { "Name": "CVS", "Address": "1901 West Oregon Avenue", "City": "Philadelphia", "State": "PA", "Zip_Code": 19145, "Latitude": 39.918380, "Longitude": -75.180340 }, "geometry": { "type": "Point", "coordinates": [ -75.18034, 39.91838 ] } },
{ "type": "Feature", "properties": { "Name": "CVS", "Address": "2132 South St", "City": "Philadelphia", "State": "PA", "Zip_Code": 19146, "Latitude": 39.945030, "Longitude": -75.178420 }, "geometry": { "type": "Point", "coordinates": [ -75.17842, 39.94503 ] } },
{ "type": "Feature", "properties": { "Name": "CVS", "Address": "2320 Fairmount Avenue", "City": "Philadelphia", "State": "PA", "Zip_Code": 19130, "Latitude": 39.966940, "Longitude": -75.176190 }, "geometry": { "type": "Point", "coordinates": [ -75.17619, 39.96694 ] } },
{ "type": "Feature", "properties": { "Name": "CVS", "Address": "2400 Aramingo Avenue", "City": "Philadelphia", "State": "PA", "Zip_Code": 19125, "Latitude": 39.976370, "Longitude": -75.120350 }, "geometry": { "type": "Point", "coordinates": [ -75.12035, 39.97637 ] } },
{ "type": "Feature", "properties": { "Name": "CVS", "Address": "259 Market Street", "City": "Philadelphia", "State": "PA", "Zip_Code": 19106, "Latitude": 39.950280, "Longitude": -75.145540 }, "geometry": { "type": "Point", "coordinates": [ -75.14554, 39.95028 ] } },
{ "type": "Feature", "properties": { "Name": "CVS", "Address": "2701 Castor Ave", "City": "Philadelphia", "State": "PA", "Zip_Code": 19134, "Latitude": 39.990300, "Longitude": -75.090500 }, "geometry": { "type": "Point", "coordinates": [ -75.0905, 39.9903 ] } },
{ "type": "Feature", "properties": { "Name": "CVS", "Address": "3300 South Broad Street", "City": "Philadelphia", "State": "PA", "Zip_Code": 19145, "Latitude": 39.909200, "Longitude": -75.174000 }, "geometry": { "type": "Point", "coordinates": [ -75.174, 39.9092 ] } },
{ "type": "Feature", "properties": { "Name": "CVS", "Address": "3331 Grant Avenue", "City": "Philadelphia", "State": "PA", "Zip_Code": 19114, "Latitude": 40.069160, "Longitude": -75.007340 }, "geometry": { "type": "Point", "coordinates": [ -75.00734, 40.06916 ] } },
{ "type": "Feature", "properties": { "Name": "CVS", "Address": "3780 Main Street", "City": "Philadelphia", "State": "PA", "Zip_Code": 19127, "Latitude": 40.018580, "Longitude": -75.214290 }, "geometry": { "type": "Point", "coordinates": [ -75.21429, 40.01858 ] } },
{ "type": "Feature", "properties": { "Name": "CVS", "Address": "3925 Walnut Street", "City": "Philadelphia", "State": "PA", "Zip_Code": 19104, "Latitude": 39.954270, "Longitude": -75.201940 }, "geometry": { "type": "Point", "coordinates": [ -75.20194, 39.95427 ] } },
{ "type": "Feature", "properties": { "Name": "CVS", "Address": "4000 Monument Rd", "City": "Philadelphia", "State": "PA", "Zip_Code": 19131, "Latitude": 40.006520, "Longitude": -75.212440 }, "geometry": { "type": "Point", "coordinates": [ -75.21244, 40.00652 ] } },
{ "type": "Feature", "properties": { "Name": "CVS", "Address": "401 Spring Garden Street", "City": "Philadelphia", "State": "PA", "Zip_Code": 19123, "Latitude": 39.961360, "Longitude": -75.145170 }, "geometry": { "type": "Point", "coordinates": [ -75.14517, 39.96136 ] } },
{ "type": "Feature", "properties": { "Name": "CVS", "Address": "4035 Torresdale Avenue", "City": "Philadelphia", "State": "PA", "Zip_Code": 19124, "Latitude": 40.005790, "Longitude": -75.091570 }, "geometry": { "type": "Point", "coordinates": [ -75.09157, 40.00579 ] } },
{ "type": "Feature", "properties": { "Name": "CVS", "Address": "421 South Second Street", "City": "Philadelphia", "State": "PA", "Zip_Code": 19147, "Latitude": 39.942200, "Longitude": -75.145080 }, "geometry": { "type": "Point", "coordinates": [ -75.14508, 39.9422 ] } },
{ "type": "Feature", "properties": { "Name": "CVS", "Address": "4314 Locust Street", "City": "Philadelphia", "State": "PA", "Zip_Code": 19104, "Latitude": 39.953520, "Longitude": -75.209680 }, "geometry": { "type": "Point", "coordinates": [ -75.20968, 39.95352 ] } },
{ "type": "Feature", "properties": { "Name": "CVS", "Address": "4400 Castor Avenue", "City": "Philadelphia", "State": "PA", "Zip_Code": 19124, "Latitude": 40.013930, "Longitude": -75.097000 }, "geometry": { "type": "Point", "coordinates": [ -75.097, 40.01393 ] } },
{ "type": "Feature", "properties": { "Name": "CVS", "Address": "4849 Market Street", "City": "Philadelphia", "State": "PA", "Zip_Code": 19139, "Latitude": 39.959630, "Longitude": -75.218510 }, "geometry": { "type": "Point", "coordinates": [ -75.21851, 39.95963 ] } },
{ "type": "Feature", "properties": { "Name": "CVS", "Address": "518 Port Royal Avenue", "City": "Roxborough", "State": "PA", "Zip_Code": 19128, "Latitude": 40.061280, "Longitude": -75.237140 }, "geometry": { "type": "Point", "coordinates": [ -75.23714, 40.06128 ] } },
{ "type": "Feature", "properties": { "Name": "CVS", "Address": "5843 Rising Sun Avenue", "City": "Philadelphia", "State": "PA", "Zip_Code": 19120, "Latitude": 40.043400, "Longitude": -75.103500 }, "geometry": { "type": "Point", "coordinates": [ -75.1035, 40.0434 ] } },
{ "type": "Feature", "properties": { "Name": "CVS", "Address": "6150 North 5th Street", "City": "Philadelphia", "State": "PA", "Zip_Code": 19120, "Latitude": 40.044800, "Longitude": -75.128400 }, "geometry": { "type": "Point", "coordinates": [ -75.1284, 40.0448 ] } },
{ "type": "Feature", "properties": { "Name": "CVS", "Address": "6344 Stenton Avenue", "City": "Philadelphia", "State": "PA", "Zip_Code": 19138, "Latitude": 40.059890, "Longitude": -75.166560 }, "geometry": { "type": "Point", "coordinates": [ -75.16656, 40.05989 ] } },
{ "type": "Feature", "properties": { "Name": "CVS", "Address": "6501 Harbison Avenue", "City": "Philadelphia", "State": "PA", "Zip_Code": 19149, "Latitude": 40.034580, "Longitude": -75.063430 }, "geometry": { "type": "Point", "coordinates": [ -75.06343, 40.03458 ] } },
{ "type": "Feature", "properties": { "Name": "CVS", "Address": "6562 Haverford Avenue", "City": "Philadelphia", "State": "PA", "Zip_Code": 19151, "Latitude": 39.971700, "Longitude": -75.250700 }, "geometry": { "type": "Point", "coordinates": [ -75.2507, 39.9717 ] } },
{ "type": "Feature", "properties": { "Name": "CVS", "Address": "6601 North Broad Street", "City": "Philadelphia", "State": "PA", "Zip_Code": 19126, "Latitude": 40.053970, "Longitude": -75.140750 }, "geometry": { "type": "Point", "coordinates": [ -75.14075, 40.05397 ] } },
{ "type": "Feature", "properties": { "Name": "CVS", "Address": "6701 Ridge Avenue Building 1", "City": "Philadelphia", "State": "PA", "Zip_Code": 19128, "Latitude": 40.041010, "Longitude": -75.224170 }, "geometry": { "type": "Point", "coordinates": [ -75.22417, 40.04101 ] } },
{ "type": "Feature", "properties": { "Name": "CVS", "Address": "6900 Lindbergh Boulevard", "City": "Philadelphia", "State": "PA", "Zip_Code": 19142, "Latitude": 39.912400, "Longitude": -75.228700 }, "geometry": { "type": "Point", "coordinates": [ -75.2287, 39.9124 ] } },
{ "type": "Feature", "properties": { "Name": "CVS", "Address": "7065 Lincoln Drive", "City": "Philadelphia", "State": "PA", "Zip_Code": 19119, "Latitude": 40.054070, "Longitude": -75.193160 }, "geometry": { "type": "Point", "coordinates": [ -75.19316, 40.05407 ] } },
{ "type": "Feature", "properties": { "Name": "CVS", "Address": "7219 Ridge Avenue At Domino Lane North", "City": "Philadelphia", "State": "PA", "Zip_Code": 19128, "Latitude": 40.045820, "Longitude": -75.231920 }, "geometry": { "type": "Point", "coordinates": [ -75.23192, 40.04582 ] } },
{ "type": "Feature", "properties": { "Name": "CVS", "Address": "7350 Oxford Avenue", "City": "Philadelphia", "State": "PA", "Zip_Code": 19111, "Latitude": 40.062600, "Longitude": -75.083700 }, "geometry": { "type": "Point", "coordinates": [ -75.0837, 40.0626 ] } },
{ "type": "Feature", "properties": { "Name": "CVS", "Address": "7400 Bustleton Ave", "City": "Philadelphia", "State": "PA", "Zip_Code": 19152, "Latitude": 40.050100, "Longitude": -75.058100 }, "geometry": { "type": "Point", "coordinates": [ -75.0581, 40.0501 ] } },
{ "type": "Feature", "properties": { "Name": "CVS", "Address": "7520 City Line Avenue", "City": "Philadelphia", "State": "PA", "Zip_Code": 19151, "Latitude": 39.978010, "Longitude": -75.271570 }, "geometry": { "type": "Point", "coordinates": [ -75.27157, 39.97801 ] } },
{ "type": "Feature", "properties": { "Name": "CVS", "Address": "7700 Germantown Avenue", "City": "Philadelphia", "State": "PA", "Zip_Code": 19118, "Latitude": 40.067630, "Longitude": -75.197840 }, "geometry": { "type": "Point", "coordinates": [ -75.19784, 40.06763 ] } },
{ "type": "Feature", "properties": { "Name": "CVS", "Address": "7720 Bustleton Avenue", "City": "Philadelphia", "State": "PA", "Zip_Code": 19152, "Latitude": 40.055000, "Longitude": -75.054000 }, "geometry": { "type": "Point", "coordinates": [ -75.054, 40.055 ] } },
{ "type": "Feature", "properties": { "Name": "CVS", "Address": "8525 Frankford Avenue", "City": "Philadelphia", "State": "PA", "Zip_Code": 19136, "Latitude": 40.045780, "Longitude": -75.015520 }, "geometry": { "type": "Point", "coordinates": [ -75.01552, 40.04578 ] } },
{ "type": "Feature", "properties": { "Name": "CVS", "Address": "922-938 North Broad Street", "City": "Philadelphia", "State": "PA", "Zip_Code": 19130, "Latitude": 39.971230, "Longitude": -75.159900 }, "geometry": { "type": "Point", "coordinates": [ -75.1599, 39.97123 ] } },
{ "type": "Feature", "properties": { "Name": "CVS", "Address": "9875 Bustleton Avenue", "City": "Philadelphia", "State": "PA", "Zip_Code": 19115, "Latitude": 40.092890, "Longitude": -75.030870 }, "geometry": { "type": "Point", "coordinates": [ -75.03087, 40.09289 ] } }
]
}
